{
  "city": "Cluj-Napoca",
  "tags": [
    "istorie",
    "natura",
    "cultura"
  ],
  "attractions": [
    {
      "name": "Cinema Florin Piersic",
      "category": "cinema",
      "lat": 46.7747569,
      "lon": 23.5901995,
      "opening_hours": "N/A",
      "website": "N/A",
      "description": "N/A",
      "phone": "N/A",
      "wheelchair": "yes",
      "fee": "N/A",
      "addr_street": "Piața Mihai Viteazu",
      "addr_housenr": "11",
      "imagine": "https://upload.wikimedia.org/wikipedia/commons/thumb/2/22/Florin_Piersic_in_1970.png/500px-Florin_Piersic_in_1970.png"
    },
    {
      "name": "Dealul Cetățuia",
      "category": "attraction",
      "lat": 46.7751611,
      "lon": 23.5792815,
      "opening_hours": "N/A",
      "website": "N/A",
      "description": "N/A",
      "phone": "N/A",
      "wheelchair": "N/A",
      "fee": "N/A",
      "addr_street": "N/A",
      "addr_housenr": "N/A",
      "imagine": "https://upload.wikimedia.org/wikipedia/commons/thumb/5/50/Cet%C4%83%C8%9Buia_Brasov%2C_vazuta_de_pe_DEalul_Melcilor.jpg/500px-Cet%C4%83%C8%9Buia_Brasov%2C_vazuta_de_pe_DEalul_Melcilor.jpg"
    },
    {
      "name": "Cinema City",
      "category": "cinema",
      "lat": 46.7490855,
      "lon": 23.5304495,
      "opening_hours": "N/A",
      "website": "N/A",
      "description": "N/A",
      "phone": "N/A",
      "wheelchair": "N/A",
      "fee": "N/A",
      "addr_street": "N/A",
      "addr_housenr": "N/A",
      "imagine": "https://upload.wikimedia.org/wikipedia/commons/thumb/9/98/Cinema_City.svg/500px-Cinema_City.svg.png"
    },
    {
      "name": "Biblioteca Austria",
      "category": "library",
      "lat": 46.7755038,
      "lon": 23.5869138,
      "opening_hours": "Mo-Fr 09:00-13:00",
      "website": "N/A",
      "description": "N/A",
      "phone": "N/A",
      "wheelchair": "N/A",
      "fee": "N/A",
      "addr_street": "Strada Horea",
      "addr_housenr": "N/A",
      "imagine": "https://upload.wikimedia.org/wikipedia/commons/thumb/d/d7/Neue_Burg_Vienna_June_2006_271.jpg/500px-Neue_Burg_Vienna_June_2006_271.jpg"
    },
    {
      "name": "Teatrul de Păpuși PUCK",
      "category": "theatre",
      "lat": 46.7686289,
      "lon": 23.5923722,
      "opening_hours": "N/A",
      "website": "https://teatrulpuck.ro/",
      "description": "N/A",
      "phone": "N/A",
      "wheelchair": "limited",
      "fee": "N/A",
      "addr_street": "N/A",
      "addr_housenr": "N/A",
      "imagine": "N/A"
    },
    {
      "name": "Breasla Barabás Miklós",
      "category": "arts_centre",
      "lat": 46.7684573,
      "lon": 23.5965135,
      "opening_hours": "N/A",
      "website": "N/A",
      "description": "N/A",
      "phone": "N/A",
      "wheelchair": "no",
      "fee": "N/A",
      "addr_street": "Strada Mihail Kogălniceanu",
      "addr_housenr": "N/A",
      "imagine": "N/A"
    },
    {
      "name": "Stâlpi Împușcați",
      "category": "memorial",
      "lat": 46.7687619,
      "lon": 23.5895935,
      "opening_hours": "N/A",
      "website": "N/A",
      "description": "N/A",
      "phone": "N/A",
      "wheelchair": "yes",
      "fee": "N/A",
      "addr_street": "N/A",
      "addr_housenr": "N/A",
      "imagine": "N/A"
    },
    {
      "name": "Lupa Capitolina",
      "category": "monument",
      "lat": 46.7697093,
      "lon": 23.5922886,
      "opening_hours": "N/A",
      "website": "N/A",
      "description": "N/A",
      "phone": "N/A",
      "wheelchair": "N/A",
      "fee": "N/A",
      "addr_street": "Bulevardul Eroilor",
      "addr_housenr": "N/A",
      "imagine": "N/A"
    },
    {
      "name": "Școala Ardeleană",
      "category": "monument",
      "lat": 46.7676195,
      "lon": 23.5921289,
      "opening_hours": "N/A",
      "website": "N/A",
      "description": "N/A",
      "phone": "N/A",
      "wheelchair": "N/A",
      "fee": "N/A",
      "addr_street": "N/A",
      "addr_housenr": "N/A",
      "imagine": "N/A"
    },
    {
      "name": "Centrul Cultural Polonez",
      "category": "community_centre",
      "lat": 46.7730119,
      "lon": 23.620332,
      "opening_hours": "N/A",
      "website": "N/A",
      "description": "N/A",
      "phone": "N/A",
      "wheelchair": "N/A",
      "fee": "N/A",
      "addr_street": "N/A",
      "addr_housenr": "N/A",
      "imagine": "N/A"
    }
  ],
  "restaurants": [
    {
      "name": "Restaurant Livada",
      "category": "restaurant",
      "lat": 46.7659022,
      "lon": 23.5823243,
      "opening_hours": "Mo-Fr 10:00-24:00;Sa-Su 12:00-24:00",
      "website": "http://www.restaurantlivada.ro/",
      "description": "N/A",
      "phone": "N/A",
      "wheelchair": "N/A",
      "fee": "N/A",
      "addr_street": "Strada Clinicilor",
      "addr_housenr": "14",
      "imagine": "N/A"
    },
    {
      "name": "Restaurant UMF",
      "category": "restaurant",
      "lat": 46.7657285,
      "lon": 23.5854918,
      "opening_hours": "Mo-Fr 12:00-16:00",
      "website": "N/A",
      "description": "N/A",
      "phone": "N/A",
      "wheelchair": "N/A",
      "fee": "N/A",
      "addr_street": "Strada Victor Babeș",
      "addr_housenr": "13",
      "imagine": "N/A"
    },
    {
      "name": "Pizzeria New Croco",
      "category": "restaurant",
      "lat": 46.76379,
      "lon": 23.5847264,
      "opening_hours": "Mo-Su 08:00-24:00",
      "website": "https://newcroco.ro/",
      "description": "N/A",
      "phone": "+40 754 605 001;+40 724 056 686",
      "wheelchair": "N/A",
      "fee": "N/A",
      "addr_street": "Strada Victor Babeș",
      "addr_housenr": "12",
      "imagine": "N/A"
    },
    {
      "name": "Tokyo",
      "category": "restaurant",
      "lat": 46.7630339,
      "lon": 23.5838731,
      "opening_hours": "Mo-Su 12:00-23:00",
      "website": "https://www.tokyorestaurant.ro/",
      "description": "N/A",
      "phone": "+40 264 598 662;+40 753 070 000",
      "wheelchair": "N/A",
      "fee": "N/A",
      "addr_street": "Strada Profesor Gheorghe Marinescu",
      "addr_housenr": "5",
      "imagine": "N/A"
    },
    {
      "name": "McDonald's",
      "category": "fast_food",
      "lat": 46.7741492,
      "lon": 23.5927655,
      "opening_hours": "Mo-Sa 07:00-24:00; Su 08:00-24:00",
      "website": "https://mcdonalds.ro/",
      "description": "N/A",
      "phone": "+40 264 406 355;+40 372 701 225",
      "wheelchair": "no",
      "fee": "N/A",
      "addr_street": "Piața Mihai Viteazu",
      "addr_housenr": "N/A",
      "imagine": "N/A"
    },
    {
      "name": "Valahia",
      "category": "restaurant",
      "lat": 46.7575325,
      "lon": 23.5669635,
      "opening_hours": "Mo 00:00-23:00; Tu-Su 11:00-23:00",
      "website": "N/A",
      "description": "N/A",
      "phone": "N/A",
      "wheelchair": "N/A",
      "fee": "N/A",
      "addr_street": "Strada Govora",
      "addr_housenr": "27",
      "imagine": "N/A"
    },
    {
      "name": "Spritz",
      "category": "restaurant",
      "lat": 46.7729776,
      "lon": 23.5908652,
      "opening_hours": "08:00-24:00",
      "website": "https://spritzcafe.com",
      "description": "Hungarian food specialities.",
      "phone": "+40 0723183266",
      "wheelchair": "no",
      "fee": "N/A",
      "addr_street": "Strada Dávid Ferenc",
      "addr_housenr": "15",
      "imagine": "N/A"
    },
    {
      "name": "Bujolé",
      "category": "restaurant",
      "lat": 46.7695291,
      "lon": 23.5888326,
      "opening_hours": "Mo-Th 08:00-00:00; Fr 08:00-01:00; Sa 09:00-01:00; Su 09:00-00:00",
      "website": "http://cafecorso.ro/",
      "description": "N/A",
      "phone": "+40 733 946 474",
      "wheelchair": "no",
      "fee": "N/A",
      "addr_street": "Piața Unirii",
      "addr_housenr": "15",
      "imagine": "N/A"
    },
    {
      "name": "Mikó",
      "category": "restaurant",
      "lat": 46.7646272,
      "lon": 23.577451,
      "opening_hours": "8:00-11:00",
      "website": "N/A",
      "description": "N/A",
      "phone": "N/A",
      "wheelchair": "limited",
      "fee": "N/A",
      "addr_street": "Strada Clinicilor",
      "addr_housenr": "23",
      "imagine": "N/A"
    },
    {
      "name": "Heltai",
      "category": "restaurant",
      "lat": 46.7657681,
      "lon": 23.5815745,
      "opening_hours": "9:00-20:00",
      "website": "N/A",
      "description": "N/A",
      "phone": "N/A",
      "wheelchair": "no",
      "fee": "N/A",
      "addr_street": "Strada Clinicilor",
      "addr_housenr": "18",
      "imagine": "N/A"
    }
  ]
}