{
  "city": "paris",
  "tags": [
    "natura",
    "distractie",
    "sport"
  ],
  "attractions": [
    {
      "name": "Grande Arche",
      "category": "viewpoint",
      "lat": 48.8925554,
      "lon": 2.2358933,
      "opening_hours": "N/A",
      "website": "N/A",
      "description": "N/A",
      "phone": "N/A",
      "wheelchair": "yes",
      "fee": "N/A",
      "addr_street": "N/A",
      "addr_housenr": "N/A",
      "imagine": "https://upload.wikimedia.org/wikipedia/commons/thumb/1/1f/Grande_Arche%2C_France_-_April_2011.jpg/500px-Grande_Arche%2C_France_-_April_2011.jpg"
    },
    {
      "name": "Jardin Yitzhak Rabin",
      "category": "garden",
      "lat": 48.834022,
      "lon": 2.3834762,
      "opening_hours": "N/A",
      "website": "N/A",
      "description": "N/A",
      "phone": "N/A",
      "wheelchair": "N/A",
      "fee": "N/A",
      "addr_street": "N/A",
      "addr_housenr": "N/A",
      "imagine": "https://upload.wikimedia.org/wikipedia/commons/thumb/a/a3/Images_of_war_23-25_from_Gaza%2C_by_Jaber_Badwen%2C_IMG_6099.jpg/500px-Images_of_war_23-25_from_Gaza%2C_by_Jaber_Badwen%2C_IMG_6099.jpg"
    },
    {
      "name": "Piscine Suzanne Berlioux",
      "category": "sports_centre",
      "lat": 48.8626842,
      "lon": 2.3440139,
      "opening_hours": "N/A",
      "website": "https://www.paris.fr/lieux/piscine-suzanne-berlioux-les-halles-2916",
      "description": "N/A",
      "phone": "+33 1 42 36 98 44",
      "wheelchair": "N/A",
      "fee": "N/A",
      "addr_street": "N/A",
      "addr_housenr": "N/A",
      "imagine": "N/A"
    },
    {
      "name": "La Goguette",
      "category": "nightclub",
      "lat": 48.8580287,
      "lon": 2.3999426,
      "opening_hours": "N/A",
      "website": "N/A",
      "description": "N/A",
      "phone": "N/A",
      "wheelchair": "N/A",
      "fee": "N/A",
      "addr_street": "N/A",
      "addr_housenr": "N/A",
      "imagine": "N/A"
    },
    {
      "name": "Belvédère de la Sibylle",
      "category": "viewpoint",
      "lat": 48.8810863,
      "lon": 2.3830748,
      "opening_hours": "N/A",
      "website": "N/A",
      "description": "N/A",
      "phone": "N/A",
      "wheelchair": "N/A",
      "fee": "N/A",
      "addr_street": "N/A",
      "addr_housenr": "N/A",
      "imagine": "N/A"
    },
    {
      "name": "Arkose Issy-les-Moulineaux",
      "category": "sports_centre",
      "lat": 48.8234134,
      "lon": 2.2624384,
      "opening_hours": "Mo, Tu, Th, Fr 09:00-24:00; We, Sa, Su 08:00-24:00; PH 08:00-24:00",
      "website": "https://arkose.com/issy-les-moulineaux-voie",
      "description": "N/A",
      "phone": "+33 1 58 88 00 22",
      "wheelchair": "N/A",
      "fee": "N/A",
      "addr_street": "Boulevard Garibaldi",
      "addr_housenr": "1-6",
      "imagine": "N/A"
    },
    {
      "name": "CSPSE",
      "category": "sports_centre",
      "lat": 48.8463183,
      "lon": 2.3713211,
      "opening_hours": "N/A",
      "website": "https://cspse-teamcamp10.fr/",
      "description": "N/A",
      "phone": "N/A",
      "wheelchair": "N/A",
      "fee": "N/A",
      "addr_street": "N/A",
      "addr_housenr": "N/A",
      "imagine": "N/A"
    },
    {
      "name": "CMG Sports Club",
      "category": "sports_centre",
      "lat": 48.8732718,
      "lon": 2.3058616,
      "opening_hours": "N/A",
      "website": "https://www.cmgsportsclub.com/",
      "description": "N/A",
      "phone": "+33 1 43 59 04 58",
      "wheelchair": "N/A",
      "fee": "N/A",
      "addr_street": "N/A",
      "addr_housenr": "N/A",
      "imagine": "N/A"
    },
    {
      "name": "Le Baiser Salé",
      "category": "nightclub",
      "lat": 48.8598453,
      "lon": 2.3478047,
      "opening_hours": "N/A",
      "website": "N/A",
      "description": "N/A",
      "phone": "N/A",
      "wheelchair": "limited",
      "fee": "N/A",
      "addr_street": "Rue des Lombards",
      "addr_housenr": "58",
      "imagine": "N/A"
    },
    {
      "name": "Happy Hour - Escape Game",
      "category": "escape_game",
      "lat": 48.8699301,
      "lon": 2.3484226,
      "opening_hours": "N/A",
      "website": "http://www.happyhourescapegame.com/",
      "description": "N/A",
      "phone": "N/A",
      "wheelchair": "N/A",
      "fee": "N/A",
      "addr_street": "N/A",
      "addr_housenr": "N/A",
      "imagine": "N/A"
    }
  ],
  "restaurants": [
    {
      "name": "Moulin Créole",
      "category": "restaurant",
      "lat": 48.8298338,
      "lon": 2.3228991,
      "opening_hours": "07:00-23:30",
      "website": "https://www.moulin-creole-paris.fr",
      "description": "N/A",
      "phone": "+33 1 45 39 31 31",
      "wheelchair": "N/A",
      "fee": "N/A",
      "addr_street": "N/A",
      "addr_housenr": "N/A",
      "imagine": "N/A"
    },
    {
      "name": "Big Fernand",
      "category": "fast_food",
      "lat": 48.8942633,
      "lon": 2.2311932,
      "opening_hours": "Mo-Su 12:00-15:00,19:00-22:30",
      "website": "https://bigfernand.com/restaurants/nanterre-2/",
      "description": "N/A",
      "phone": "+33 1 41 20 83 67",
      "wheelchair": "yes",
      "fee": "N/A",
      "addr_street": "Jardin de l'Arche",
      "addr_housenr": "261",
      "imagine": "N/A"
    },
    {
      "name": "Buffalo Grill",
      "category": "restaurant",
      "lat": 48.9004177,
      "lon": 2.2243311,
      "opening_hours": "N/A",
      "website": "N/A",
      "description": "N/A",
      "phone": "+33 9 74 64 10 89",
      "wheelchair": "N/A",
      "fee": "N/A",
      "addr_street": "N/A",
      "addr_housenr": "N/A",
      "imagine": "N/A"
    },
    {
      "name": "McDonald's",
      "category": "fast_food",
      "lat": 48.9012749,
      "lon": 2.2258409,
      "opening_hours": "Mo-Th,Su 09:00-24:00; Fr-Sa 09:00-01:00",
      "website": "https://www.mcdonalds.fr/restaurants/mcdonalds-nanterre-prefecture/818",
      "description": "N/A",
      "phone": "+33 1 81 93 12 78",
      "wheelchair": "N/A",
      "fee": "N/A",
      "addr_street": "N/A",
      "addr_housenr": "N/A",
      "imagine": "N/A"
    },
    {
      "name": "Le Severo",
      "category": "restaurant",
      "lat": 48.8319911,
      "lon": 2.3245334,
      "opening_hours": "Mo-Fr 12:00-14:00,19:30-21:30",
      "website": "N/A",
      "description": "N/A",
      "phone": "N/A",
      "wheelchair": "yes",
      "fee": "N/A",
      "addr_street": "Rue des Plantes",
      "addr_housenr": "8",
      "imagine": "N/A"
    },
    {
      "name": "Le Sancerre",
      "category": "restaurant",
      "lat": 48.896284,
      "lon": 2.2250919,
      "opening_hours": "N/A",
      "website": "N/A",
      "description": "N/A",
      "phone": "N/A",
      "wheelchair": "yes",
      "fee": "N/A",
      "addr_street": "N/A",
      "addr_housenr": "N/A",
      "imagine": "N/A"
    },
    {
      "name": "La Terrasse",
      "category": "restaurant",
      "lat": 48.8965817,
      "lon": 2.2241626,
      "opening_hours": "N/A",
      "website": "N/A",
      "description": "N/A",
      "phone": "N/A",
      "wheelchair": "N/A",
      "fee": "N/A",
      "addr_street": "N/A",
      "addr_housenr": "N/A",
      "imagine": "N/A"
    },
    {
      "name": "Avant Seine",
      "category": "restaurant",
      "lat": 48.8948889,
      "lon": 2.2387542,
      "opening_hours": "N/A",
      "website": "N/A",
      "description": "N/A",
      "phone": "N/A",
      "wheelchair": "N/A",
      "fee": "N/A",
      "addr_street": "N/A",
      "addr_housenr": "N/A",
      "imagine": "N/A"
    },
    {
      "name": "Tusk",
      "category": "restaurant",
      "lat": 48.8907062,
      "lon": 2.242646,
      "opening_hours": "Mo-Fr 08:00-21:00",
      "website": "https://restauranttusk.com/",
      "description": "N/A",
      "phone": "+33 1 47 75 00 10",
      "wheelchair": "yes",
      "fee": "N/A",
      "addr_street": "Place de La Défense",
      "addr_housenr": "16",
      "imagine": "N/A"
    },
    {
      "name": "Soleil d'Or",
      "category": "restaurant",
      "lat": 48.8964233,
      "lon": 2.2372254,
      "opening_hours": "N/A",
      "website": "N/A",
      "description": "N/A",
      "phone": "N/A",
      "wheelchair": "N/A",
      "fee": "N/A",
      "addr_street": "N/A",
      "addr_housenr": "N/A",
      "imagine": "N/A"
    }
  ]
}